{
"type": "FeatureCollection",
"name": "parroquias",
"crs": { "type": "name", "properties": { "name": "urn:ogc:def:crs:OGC:1.3:CRS84" } },
"features": [
{ "type": "Feature", "properties": { "No": 1, "ZONA": "VII", "Decanato": 1, "Parroquia/": "Parroquia de la", "Nombre": "Santa Cruz del Pedregal", "Colonia": "Jardines del Pedregal", "Padre enca": "Rvdo. P. Giancarlo Tomao Gordon, M.Sp.S." }, "geometry": { "type": "Point", "coordinates": [ -99.2120653, 19.3158011, 0.0 ] } },
{ "type": "Feature", "properties": { "No": 2, "ZONA": "VII", "Decanato": 1, "Parroquia/": "Parroquia de la", "Nombre": "Purísima Concepción", "Colonia": "Concepción Tlacopac", "Padre enca": "Pbro. Óscar Daniel Hernández Agundiz" }, "geometry": { "type": "Point", "coordinates": [ -99.1921661, 19.3545174, 0.0 ] } },
{ "type": "Feature", "properties": { "No": 3, "ZONA": "VII", "Decanato": 1, "Parroquia/": "Parroquia de", "Nombre": "San Jacinto", "Colonia": "San Ángel", "Padre enca": "Pbro. Israel Bucio Gómez" }, "geometry": { "type": "Point", "coordinates": [ -99.1926191, 19.3437123, 0.0 ] } },
{ "type": "Feature", "properties": { "No": 4, "ZONA": "VII", "Decanato": 1, "Parroquia/": "Parroquia de", "Nombre": "San José del Altillo", "Colonia": "Santa Catarina Coyoacán", "Padre enca": "Rvdo. P. Vicente de Paul Monroy Campero M. Sp. S." }, "geometry": { "type": "Point", "coordinates": [ -99.1795909, 19.3485662, 0.0 ] } },
{ "type": "Feature", "properties": { "No": 5, "ZONA": "VII", "Decanato": 1, "Parroquia/": "Parroquia de", "Nombre": "Nuestra Señora del Carmen", "Colonia": "San Ángel", "Padre enca": "Pbro. Mario Alberto Cruz Martínez" }, "geometry": { "type": "Point", "coordinates": [ -99.1896194, 19.345575, 0.0 ] } },
{ "type": "Feature", "properties": { "No": 6, "ZONA": "VII", "Decanato": 1, "Parroquia/": "Parroquia de", "Nombre": "Nuestra Señora de Guadalupe", "Colonia": "Tizapán San Ángel", "Padre enca": "Pbro. Guillermo Valadez Arias" }, "geometry": { "type": "Point", "coordinates": [ -99.2020654, 19.3372273, 0.0 ] } },
{ "type": "Feature", "properties": { "No": 7, "ZONA": "VII", "Decanato": 1, "Parroquia/": "Parroquia de", "Nombre": "San Juan Pablo II y Santo Tomás Moro", "Colonia": "Florida", "Padre enca": "Pbro. Guillermo Mendoza Ridríguez" }, "geometry": { "type": "Point", "coordinates": [ -99.1795066, 19.3523116, 0.0 ] } },
{ "type": "Feature", "properties": { "No": 8, "ZONA": "VII", "Decanato": 1, "Parroquia/": "Parroquia de", "Nombre": "Nuestra Señora de Guadalupe", "Colonia": "Guadalupe Inn", "Padre enca": "Pbro. Joel Sánchez Vargas" }, "geometry": { "type": "Point", "coordinates": [ -99.2020654, 19.3372273, 0.0 ] } },
{ "type": "Feature", "properties": { "No": 9, "ZONA": "VII", "Decanato": 1, "Parroquia/": "Rectoría de", "Nombre": "San Sebastián", "Colonia": "Axotla", "Padre enca": "Pbro. Pedro Lascuráin Pérez" }, "geometry": { "type": "Point", "coordinates": [ -99.1747764, 19.3566693, 0.0 ] } },
{ "type": "Feature", "properties": { "No": 10, "ZONA": "VII", "Decanato": 1, "Parroquia/": "Parroquia de", "Nombre": "San Sebastián Mártir", "Colonia": "Chimalistac", "Padre enca": "Pbro. Rafael Zacarías Rodríguez" }, "geometry": { "type": "Point", "coordinates": [ -99.1841509, 19.3471693, 0.0 ] } },
{ "type": "Feature", "properties": { "No": 11, "ZONA": "VII", "Decanato": 1, "Parroquia/": "Rectoría de", "Nombre": "San José", "Colonia": "Progreso Tizapán", "Padre enca": "Pbro. Rubén Sánchez Olmos" }, "geometry": { "type": "Point", "coordinates": [ -99.2037955, 19.3412814, 0.0 ] } },
{ "type": "Feature", "properties": { "No": 12, "ZONA": "VII", "Decanato": 1, "Parroquia/": "Parroquia del", "Nombre": "Sagrado Corazón de Jesús", "Colonia": "Copilco El Bajo", "Padre enca": "Rvo. P. Hilarius Niri Kaha S.V.D." }, "geometry": { "type": "Point", "coordinates": [ -99.1877204, 19.340375, 0.0 ] } },
{ "type": "Feature", "properties": { "No": 13, "ZONA": "VII", "Decanato": 2, "Parroquia/": "Parroquia de", "Nombre": "Santa Lucía", "Colonia": "Santa Lucía Xantepec", "Padre enca": "Pbro. Edgar Omar Tovar Paz" }, "geometry": { "type": "Point", "coordinates": [ -99.2525261, 19.3587764, 0.0 ] } },
{ "type": "Feature", "properties": { "No": 14, "ZONA": "VII", "Decanato": 2, "Parroquia/": "Parroquia de", "Nombre": "Nuestra Señora del Sagrado Corazón y Santa", "Colonia": "Olivar del Conde", "Padre enca": "Rvdo. P. Gerardo Padilla Enríquez C.M." }, "geometry": { "type": "Point", "coordinates": [ -99.2135927, 19.3712658, 0.0 ] } },
{ "type": "Feature", "properties": { "No": 15, "ZONA": null, "Decanato": null, "Parroquia/": null, "Nombre": "Cecilia", "Colonia": null, "Padre enca": null }, "geometry": { "type": "Point", "coordinates": [ -99.1928696, 19.3795214, 0.0 ] } },
{ "type": "Feature", "properties": { "No": 16, "ZONA": "VII", "Decanato": 2, "Parroquia/": "Parroquia de la", "Nombre": "Asunción de Santa María", "Colonia": "Santa María Nonoalco, Mixcoac", "Padre enca": "Pbro. Ricardo Valenzuela Pérez" }, "geometry": { "type": "Point", "coordinates": [ -99.2084541, 19.3786437, 0.0 ] } },
{ "type": "Feature", "properties": { "No": 17, "ZONA": "VII", "Decanato": 2, "Parroquia/": "Parroquia de", "Nombre": "Santa Catalina Laboure", "Colonia": "Barrio Norte", "Padre enca": "Pbro. Francisco Javier Nieto Jiménez" }, "geometry": { "type": "Point", "coordinates": [ -99.23196, 19.3733846, 0.0 ] } },
{ "type": "Feature", "properties": { "No": 18, "ZONA": "VII", "Decanato": 2, "Parroquia/": "Parroquia de", "Nombre": "Nuestra Señora de Guadalupe, Estrella de la", "Colonia": "Piloto Adolfo López Mateos", "Padre enca": "Pbro. Alejandro Vazquez Borja" }, "geometry": { "type": "Point", "coordinates": [ -99.2044562, 19.3759421, 0.0 ] } },
{ "type": "Feature", "properties": { "No": 19, "ZONA": null, "Decanato": null, "Parroquia/": null, "Nombre": "Evangelización", "Colonia": null, "Padre enca": null }, "geometry": { "type": "Point", "coordinates": [ -99.2482686, 19.3613946, 0.0 ] } },
{ "type": "Feature", "properties": { "No": 20, "ZONA": "VII", "Decanato": 2, "Parroquia/": "Parroquia de", "Nombre": "San Vicente de Paúl", "Colonia": "Olivar del Conde, 1a Sección", "Padre enca": "Pbro. Dr. Rigoberto Vázquez Castañeda" }, "geometry": { "type": "Point", "coordinates": [ -99.2211708, 19.3784542, 0.0 ] } },
{ "type": "Feature", "properties": { "No": 21, "ZONA": "VII", "Decanato": 2, "Parroquia/": "Rectoría de", "Nombre": "Corpus Christi", "Colonia": "Corpus Christi", "Padre enca": "Pbro. Pbro. Genaro Flores Mendoza" }, "geometry": { "type": "Point", "coordinates": [ -99.2157252, 19.3793078, 0.0 ] } },
{ "type": "Feature", "properties": { "No": 22, "ZONA": "VII", "Decanato": 2, "Parroquia/": "Parroquia de", "Nombre": "San José Esposo de María Santísima", "Colonia": "Presidentes", "Padre enca": "Pbro." }, "geometry": { "type": "Point", "coordinates": [ -99.2717132, 19.3286543, 0.0 ] } },
{ "type": "Feature", "properties": { "No": 23, "ZONA": "VII", "Decanato": 2, "Parroquia/": "Parroquia de", "Nombre": "Nuestra Señora de San Juan de los Lagos", "Colonia": "Lomas de Capula", "Padre enca": "Pbro. Cristóbal Meclik" }, "geometry": { "type": "Point", "coordinates": [ -99.2474953, 19.3312242, 0.0 ] } },
{ "type": "Feature", "properties": { "No": 24, "ZONA": "VII", "Decanato": 3, "Parroquia/": "Parroquia de", "Nombre": "San Bartolomé Apóstol", "Colonia": "San Bartolo Ameyalco", "Padre enca": "Pbro. José Luis Ávalos Ramírez" }, "geometry": { "type": "Point", "coordinates": [ -99.2259322, 19.3422317, 0.0 ] } },
{ "type": "Feature", "properties": { "No": 25, "ZONA": "VII", "Decanato": 3, "Parroquia/": "Parroquia de", "Nombre": "San Miguel Arcángel", "Colonia": "Torres de Potrero", "Padre enca": "Pbro. Leobardo Gabriel Andrade Núñez" }, "geometry": { "type": "Point", "coordinates": [ -99.2594819, 19.3304753, 0.0 ] } },
{ "type": "Feature", "properties": { "No": 26, "ZONA": "VII", "Decanato": 3, "Parroquia/": "Parroquia de", "Nombre": "Santa María de la Natividad", "Colonia": "Tetelpan", "Padre enca": "Pbro. Samuel Rubio Morales" }, "geometry": { "type": "Point", "coordinates": [ -99.2020654, 19.3372273, 0.0 ] } },
{ "type": "Feature", "properties": { "No": 27, "ZONA": "VII", "Decanato": 3, "Parroquia/": "Rectoría de", "Nombre": "San Francisco de Asís", "Colonia": "San Bartolo Ameyalco", "Padre enca": "Pbro. José Alberto Hernández Ibáñez" }, "geometry": { "type": "Point", "coordinates": [ -99.2257033, 19.3375873, 0.0 ] } },
{ "type": "Feature", "properties": { "No": 28, "ZONA": "VII", "Decanato": 3, "Parroquia/": "Parroquia de", "Nombre": "Nuestra Señora de Guadalupe", "Colonia": "Lomas de la Era", "Padre enca": "Pbro. Luis Eduardo Vite Ramírez" }, "geometry": { "type": "Point", "coordinates": [ -99.2381229, 19.3373156, 0.0 ] } },
{ "type": "Feature", "properties": { "No": 29, "ZONA": "VII", "Decanato": 3, "Parroquia/": "Rectoría de", "Nombre": "Nuestra Señora de los Ángeles", "Colonia": "Lomas de los Ángeles", "Padre enca": "Pbro. Víctor Altamirano Sánchez" }, "geometry": { "type": "Point", "coordinates": [ -99.2381229, 19.3373156, 0.0 ] } },
{ "type": "Feature", "properties": { "No": 30, "ZONA": "VII", "Decanato": 3, "Parroquia/": "Parroquia del", "Nombre": "Señor de los Corazones", "Colonia": "Olivar de los Padres", "Padre enca": "Pbro. Martín Hernández" }, "geometry": { "type": "Point", "coordinates": [ -99.2180298, 19.3490284, 0.0 ] } },
{ "type": "Feature", "properties": { "No": 31, "ZONA": "VII", "Decanato": 3, "Parroquia/": "Rectoría de", "Nombre": "San José del Buen Consejo", "Colonia": "Olivar de los Padres", "Padre enca": "Rvdo. P. Eusebio Timoteo Ramos Ramón M.J." }, "geometry": { "type": "Point", "coordinates": [ -99.2103323, 19.3582071, 0.0 ] } },
{ "type": "Feature", "properties": { "No": 32, "ZONA": "VII", "Decanato": 3, "Parroquia/": "Rectoría de", "Nombre": "Cristo Rey", "Colonia": "Lomas del Capulín", "Padre enca": "Pbro. Oscar Arnulfo Palma Almonaci" }, "geometry": { "type": "Point", "coordinates": [ -99.2290456, 19.348516, 0.0 ] } },
{ "type": "Feature", "properties": { "No": 33, "ZONA": "VII", "Decanato": 3, "Parroquia/": "Parroquia de", "Nombre": "Santa Rosa de Lima", "Colonia": "Santa Rosa Xochiac", "Padre enca": "Pbro. Geovani Pérez Jiménez" }, "geometry": { "type": "Point", "coordinates": [ -99.2121497, 19.3919026, 0.0 ] } },
{ "type": "Feature", "properties": { "No": 34, "ZONA": "VII", "Decanato": 3, "Parroquia/": "Rectoría de", "Nombre": "Nuestra Señora de Guadalupe (La cuevita)", "Colonia": "Ampliación las Águilas", "Padre enca": "Pbro. Pablo Cirujeda Ranzenberger" }, "geometry": { "type": "Point", "coordinates": [ -99.2302453, 19.3596555, 0.0 ] } },
{ "type": "Feature", "properties": { "No": 35, "ZONA": "VII", "Decanato": 4, "Parroquia/": "Parroquia de la", "Nombre": "Inmaculada Concepción y San Pío", "Colonia": "Las Águilas", "Padre enca": "Rvdo. P. Juan Alejandro Ortíz Alvarado O.F.M Cap." }, "geometry": { "type": "Point", "coordinates": [ -99.1987329, 19.3655807, 0.0 ] } },
{ "type": "Feature", "properties": { "No": 36, "ZONA": "VII", "Decanato": 4, "Parroquia/": "Parroquia del", "Nombre": "Señor de las Bienaventuranzas", "Colonia": "Puente Colorado", "Padre enca": "Pbro. Ricardo Vidal Marín" }, "geometry": { "type": "Point", "coordinates": [ -99.2405559, 19.3528808, 0.0 ] } },
{ "type": "Feature", "properties": { "No": 37, "ZONA": "VII", "Decanato": 4, "Parroquia/": "Parroquia de", "Nombre": "Nuestra Señora del Carmen", "Colonia": "Alfonso XIII", "Padre enca": "Pbro. Luis Eduardo Valenzuela González" }, "geometry": { "type": "Point", "coordinates": [ -99.2541959, 19.3416787, 0.0 ] } },
{ "type": "Feature", "properties": { "No": 38, "ZONA": "VII", "Decanato": 4, "Parroquia/": "Parroquia de", "Nombre": "Nuestra Señora de la Esperanza", "Colonia": "Heron Proal", "Padre enca": "Pbro. Roberto Bocanegra Medrano" }, "geometry": { "type": "Point", "coordinates": [ -99.2379441, 19.3614184, 0.0 ] } },
{ "type": "Feature", "properties": { "No": 39, "ZONA": "VII", "Decanato": 4, "Parroquia/": "Parroquia de la", "Nombre": "Asunción de Nuestra Señora", "Colonia": "Merced Gómez", "Padre enca": "Pbro. Carlos Serrano Patiño" }, "geometry": { "type": "Point", "coordinates": [ -99.2072118, 19.3662123, 0.0 ] } },
{ "type": "Feature", "properties": { "No": 40, "ZONA": "VII", "Decanato": 4, "Parroquia/": "Parroquia del", "Nombre": "Señor de la Misericordia", "Colonia": "Tlacuitlapa", "Padre enca": "Pbro. Javier González Rojas" }, "geometry": { "type": "Point", "coordinates": [ -99.1869823, 19.3569234, 0.0 ] } }
]
}
